{"_id":{"$oid":"5ea81d862b263c4810ebbf84"},"name":"ג/2","lat":"31.259018768000033","lon":"34.808214546000045","address":"Rotenberg St 28, Be'er Sheva, Israel","status":"open","capacity":"1.25 meter per person"}
{"_id":{"$oid":"5ea81d862b263c4810ebbf85"},"name":"ג/1","lat":"31.259795091000058","lon":"34.80789157400005","address":"David Ben Gurion Blvd 14, Be'er Sheva, Israel","status":"open","capacity":"1.25 meter per person"}
{"_id":{"$oid":"5ea81d872b263c4810ebbf86"},"name":"ג/25","lat":"31.25924937600007","lon":"34.809368438000035","address":"Rotenberg St 6, Be'er Sheva, Israel","status":"open","capacity":"1.25 meter per person"}
{"_id":{"$oid":"5ea81d872b263c4810ebbf87"},"name":"ג/33","lat":"31.257304928000053","lon":"34.80936349500007","address":"Khana Szenes St 5, Be'er Sheva, Israel","status":"open","capacity":"1.25 meter per person"}
{"_id":{"$oid":"5ea81d882b263c4810ebbf88"},"name":"ג/36","lat":"31.25747975200005","lon":"34.810975436000035","address":"Derech HaShalom 12, Beersheba, Israel","status":"open","capacity":"1.25 meter per person"}
{"_id":{"$oid":"5ea81d892b263c4810ebbf89"},"name":"ג/3","lat":"31.258424086000048","lon":"34.81033456800003","address":"Gush Etsyon St 62, Be'er Sheva, Israel","status":"open","capacity":"1.25 meter per person"}
{"_id":{"$oid":"5ea81d892b263c4810ebbf8a"},"name":"ג/7","lat":"31.25424629400004","lon":"34.805622382000024","address":"Arlozorov St 23, Be'er Sheva, Israel","status":"open","capacity":"1.25 meter per person"}
{"_id":{"$oid":"5ea81d8a2b263c4810ebbf8b"},"name":"ג/23","lat":"31.255173057000036","lon":"34.80269352500005","address":"Wingate St 65, Be'er Sheva, Israel","status":"open","capacity":"1.25 meter per person"}
{"_id":{"$oid":"5ea81d8a2b263c4810ebbf8c"},"name":"ג/22","lat":"31.255645646000062","lon":"34.80447376800004","address":"Wingate St 45, Be'er Sheva, Israel","status":"open","capacity":"1.25 meter per person"}
{"_id":{"$oid":"5ea81d912b263c4810ebbf8d"},"name":"ג/39","lat":"31.253666206000048","lon":"34.80952510100008","address":"Derech HaShalom 87, Beersheba, Israel","status":"open","capacity":"1.25 meter per person"}
{"_id":{"$oid":"5ea81d922b263c4810ebbf8e"},"name":"ג/26","lat":"31.253733028000056","lon":"34.80755207800007","address":"Mordehai A'liash St 2, Be'er Sheva, Israel","status":"open","capacity":"1.25 meter per person"}
{"_id":{"$oid":"5ea81d932b263c4810ebbf8f"},"name":"ג/31","lat":"31.25698128500005","lon":"34.808555186000035","address":"Wingate St 20, Be'er Sheva, Israel","status":"open","capacity":"1.25 meter per person"}
{"_id":{"$oid":"5ea81d932b263c4810ebbf90"},"name":"מ/3","lat":"31.25707523500006","lon":"34.76512061400007","address":"Mish'ol Kadish Luz 28, Beersheba, Israel","status":"open","capacity":"1.25 meter per person"}
{"_id":{"$oid":"5ea81d942b263c4810ebbf91"},"name":"מ/5","lat":"31.257608025000025","lon":"34.763648620000026","address":"Mish'ol Savidor 43, Beersheba, Israel","status":"open","capacity":"1.25 meter per person"}
{"_id":{"$oid":"5ea81d942b263c4810ebbf92"},"name":"מ/4","lat":"31.25754626300005","lon":"34.762845449000054","address":"Me'ir Ya'ari St 28, Be'er Sheva, Israel","status":"open","capacity":"1.25 meter per person"}
{"_id":{"$oid":"5ea81d952b263c4810ebbf93"},"name":"ו/8","lat":"31.270085564000055","lon":"34.77867450400004","address":"Aktsin St 1, Be'er Sheva, Israel","status":"open","capacity":"1.25 meter per person"}
{"_id":{"$oid":"5ea81d962b263c4810ebbf94"},"name":"ו/7","lat":"31.270290500000044","lon":"34.777707399000064","address":"Aktsin St 14, Be'er Sheva, Israel","status":"open","capacity":"1.25 meter per person"}
{"_id":{"$oid":"5ea81d962b263c4810ebbf95"},"name":"ו/6","lat":"31.269501219000063","lon":"34.77622771000006","address":"Goitein St 9, Be'er Sheva, Israel","status":"open","capacity":"1.25 meter per person"}
{"_id":{"$oid":"5ea81d972b263c4810ebbf96"},"name":"ו/3","lat":"31.26584829600006","lon":"34.77013884400003","address":"Stein St 28, Be'er Sheva, Israel","status":"open","capacity":"1.25 meter per person"}
{"_id":{"$oid":"5ea81d972b263c4810ebbf97"},"name":"מ/6","lat":"31.25972543100005","lon":"34.78692852900008","address":"Derech Metsada 122, Beersheba, Israel","status":"open","capacity":"1.25 meter per person"}
{"_id":{"$oid":"5ea81d982b263c4810ebbf98"},"name":"ד/9","lat":"31.26461114400007","lon":"34.79518494400003","address":"Alfred Rosi St 71, Be'er Sheva, Israel","status":"open","capacity":"1.25 meter per person"}
{"_id":{"$oid":"5ea81d992b263c4810ebbf99"},"name":"ד/37","lat":"31.266921333000028","lon":"34.799772576000066","address":"Yosef Klausner St 9, Be'er Sheva, Israel","status":"open","capacity":"1.25 meter per person"}
{"_id":{"$oid":"5ea81d992b263c4810ebbf9a"},"name":"ד/40","lat":"31.26043204700005","lon":"34.79408100100005","address":"Yitskhak Avinu St 10, Be'er Sheva, Israel","status":"open","capacity":"1.25 meter per person"}
{"_id":{"$oid":"5ea81d9a2b263c4810ebbf9b"},"name":"ד/30","lat":"31.259605872000066","lon":"34.791620884000054","address":"Rabbi Akiva St 42, Be'er Sheva, Israel","status":"open","capacity":"1.25 meter per person"}
{"_id":{"$oid":"5ea81d9b2b263c4810ebbf9c"},"name":"ד/44","lat":"31.26276286800004","lon":"34.79067905900007","address":"Elazar Ben Ya'ir St 14, Be'er Sheva, Israel","status":"open","capacity":"1.25 meter per person"}
{"_id":{"$oid":"5ea81d9b2b263c4810ebbf9d"},"name":"ד/21","lat":"31.263789048000035","lon":"34.79068958000005","address":"David HaMelech St 29, Be'er Sheva, Israel","status":"open","capacity":"1.25 meter per person"}
{"_id":{"$oid":"5ea81d9c2b263c4810ebbf9e"},"name":"ד/38","lat":"31.261942934000047","lon":"34.79273660100006","address":"Shim'on Bar Giyora St 23, Be'er Sheva, Israel","status":"open","capacity":"1.25 meter per person"}
{"_id":{"$oid":"5ea81d9c2b263c4810ebbf9f"},"name":"ד/29","lat":"31.263810208000052","lon":"34.792314590000046","address":"Shim'on Bar Giyora St 2, Be'er Sheva, Israel","status":"open","capacity":"1.25 meter per person"}
{"_id":{"$oid":"5ea81d9d2b263c4810ebbfa0"},"name":"ד/45","lat":"31.26326447100007","lon":"34.792749238000056","address":"Shim'on Bar Giyora St 5, Be'er Sheva, Israel","status":"open","capacity":"1.25 meter per person"}
{"_id":{"$oid":"5ea81d9e2b263c4810ebbfa1"},"name":"ד/39","lat":"31.263504445000024","lon":"34.79274392900004","address":"Shim'on Bar Giyora St 3, Be'er Sheva, Israel","status":"open","capacity":"1.25 meter per person"}
{"_id":{"$oid":"5ea81d9e2b263c4810ebbfa2"},"name":"ד/13","lat":"31.262432614000033","lon":"34.79052351100006","address":"Elazar Ben Ya'ir St 14, Be'er Sheva, Israel","status":"open","capacity":"1.25 meter per person"}
{"_id":{"$oid":"5ea81d9f2b263c4810ebbfa3"},"name":"ד/35","lat":"31.27085801800007","lon":"34.78834339200006","address":"Ha-Talmud St 28, Be'er Sheva, Israel","status":"open","capacity":"1.25 meter per person"}
{"_id":{"$oid":"5ea81d9f2b263c4810ebbfa4"},"name":"ד/55","lat":"31.271199657000068","lon":"34.78676390800007","address":"Ba'alei ha-Tosafot St 15, Be'er Sheva, Israel","status":"open","capacity":"1.25 meter per person"}
{"_id":{"$oid":"5ea81da02b263c4810ebbfa5"},"name":"ד/52","lat":"31.270725645000027","lon":"34.78560297200005","address":"Ibn Ezra St 26, Be'er Sheva, Israel","status":"open","capacity":"1.25 meter per person"}
{"_id":{"$oid":"5ea81da12b263c4810ebbfa6"},"name":"ד/54","lat":"31.271274730000073","lon":"34.78520561300007","address":"Ramban St 19, Be'er Sheva, Israel","status":"open","capacity":"1.25 meter per person"}
{"_id":{"$oid":"5ea81da12b263c4810ebbfa7"},"name":"ד/56","lat":"31.271863030000077","lon":"34.787070295000035","address":"Ba'alei ha-Tosafot St 22, Be'er Sheva, Israel","status":"open","capacity":"1.25 meter per person"}
{"_id":{"$oid":"5ea81da22b263c4810ebbfa8"},"name":"ד/58","lat":"31.272085533000052","lon":"34.78758881700003","address":"Ba'alei ha-Tosafot St 22, Be'er Sheva, Israel","status":"open","capacity":"1.25 meter per person"}
{"_id":{"$oid":"5ea81da32b263c4810ebbfa9"},"name":"ד/2","lat":"31.272612679000076","lon":"34.793911620000074","address":"Sanhedrin St 42, Be'er Sheva, Israel","status":"open","capacity":"1.25 meter per person"}
{"_id":{"$oid":"5ea81da32b263c4810ebbfaa"},"name":"ד/1","lat":"31.272427384000025","lon":"34.79249052900008","address":"Simtat Ben Zakai 470, Beersheba, Israel","status":"open","capacity":"1.25 meter per person"}
{"_id":{"$oid":"5ea81da42b263c4810ebbfab"},"name":"ד/46","lat":"31.270405192000055","lon":"34.794108074000064","address":"HaKnesset St 19, Be'er Sheva, Israel","status":"open","capacity":"1.25 meter per person"}
{"_id":{"$oid":"5ea81da42b263c4810ebbfac"},"name":"ד/49","lat":"31.266736774000037","lon":"34.80145007800007","address":"Osvaldo Aranha St 4, Be'er Sheva, Israel","status":"open","capacity":"1.25 meter per person"}
{"_id":{"$oid":"5ea81da52b263c4810ebbfad"},"name":"ד/11","lat":"31.26281191700008","lon":"34.79216177200004","address":"Shim'on Bar Giyora St 8, Be'er Sheva, Israel","status":"open","capacity":"1.25 meter per person"}
{"_id":{"$oid":"5ea81da62b263c4810ebbfae"},"name":"א/10","lat":"31.245592719000058","lon":"34.795642514000065","address":"Shahal St 13, Be'er Sheva, Israel","status":"open","capacity":"1.25 meter per person"}
{"_id":{"$oid":"5ea81da62b263c4810ebbfaf"},"name":"א/18","lat":"31.248994151000034","lon":"34.79709718400005","address":"Moses Montefiore St 4, Be'er Sheva, Israel","status":"open","capacity":"1.25 meter per person"}
{"_id":{"$oid":"5ea81da72b263c4810ebbfb0"},"name":"א/9","lat":"31.25018874700004","lon":"34.79703768600007","address":"Smats St 10, Be'er Sheva, Israel","status":"open","capacity":"1.25 meter per person"}
{"_id":{"$oid":"5ea81da82b263c4810ebbfb1"},"name":"א/17","lat":"31.245919231000073","lon":"34.79366214400005","address":"Balfour St 22, Be'er Sheva, Israel","status":"open","capacity":"1.25 meter per person"}
{"_id":{"$oid":"5ea81da82b263c4810ebbfb2"},"name":"א/1","lat":"31.246768580000037","lon":"34.79149496600007","address":"Ahad Ha'Am St 8, Be'er Sheva, Israel","status":"open","capacity":"1.25 meter per person"}
{"_id":{"$oid":"5ea81da92b263c4810ebbfb3"},"name":"א/12","lat":"31.247992382000064","lon":"34.78489074600003","address":"HaKotel HaMa'aravi St 41, Be'er Sheva, Israel","status":"open","capacity":"1.25 meter per person"}
{"_id":{"$oid":"5ea81da92b263c4810ebbfb4"},"name":"א/5","lat":"31.247841289000064","lon":"34.78758361400003","address":"HaKotel HaMa'aravi St 10, Be'er Sheva, Israel","status":"open","capacity":"1.25 meter per person"}
{"_id":{"$oid":"5ea81daa2b263c4810ebbfb5"},"name":"א/16","lat":"31.249363784000025","lon":"34.78735539500008","address":"Basel St 28, Be'er Sheva, Israel","status":"open","capacity":"1.25 meter per person"}
{"_id":{"$oid":"5ea81dab2b263c4810ebbfb6"},"name":"א/4","lat":"31.250175772000034","lon":"34.78571473300008","address":"HaKotel HaMa'aravi St 52, Be'er Sheva, Israel","status":"open","capacity":"1.25 meter per person"}
{"_id":{"$oid":"5ea81dab2b263c4810ebbfb7"},"name":"ה/9","lat":"31.24872554700005","lon":"34.77942232600003","address":"Gamal St 13, Be'er Sheva, Israel","status":"open","capacity":"1.25 meter per person"}
{"_id":{"$oid":"5ea81dac2b263c4810ebbfb8"},"name":"ה/13","lat":"31.24861090400003","lon":"34.779619324000066","address":"Gamal St 13, Be'er Sheva, Israel","status":"open","capacity":"1.25 meter per person"}
{"_id":{"$oid":"5ea81dac2b263c4810ebbfb9"},"name":"ה/6","lat":"31.251846362000038","lon":"34.78412648500006","address":"Yetsi'at Eropa St 19, Be'er Sheva, Israel","status":"open","capacity":"1.25 meter per person"}
{"_id":{"$oid":"5ea81dad2b263c4810ebbfba"},"name":"ה/12","lat":"31.251873610000075","lon":"34.78286292100006","address":"HaAliya St 16, Be'er Sheva, Israel","status":"open","capacity":"1.25 meter per person"}
{"_id":{"$oid":"5ea81dae2b263c4810ebbfbb"},"name":"ה/11","lat":"31.25094606700003","lon":"34.777928261000056","address":"Mish'ol Durban 35, Beersheba, Israel","status":"open","capacity":"1.25 meter per person"}
{"_id":{"$oid":"5ea81dae2b263c4810ebbfbc"},"name":"ה/2","lat":"31.253505949000044","lon":"34.782604796000044","address":"HaAliya St 18, Be'er Sheva, Israel","status":"open","capacity":"1.25 meter per person"}
{"_id":{"$oid":"5ea81daf2b263c4810ebbfbd"},"name":"בא/2","lat":"31.257884104000027","lon":"34.78325380500007","address":"Bnei Or St 48, Be'er Sheva, Israel","status":"open","capacity":"1.25 meter per person"}
{"_id":{"$oid":"5ea81db02b263c4810ebbfbe"},"name":"ב/8","lat":"31.254027001000054","lon":"34.79008506100007","address":"Huberman St 8, Be'er Sheva, Israel","status":"open","capacity":"1.25 meter per person"}
{"_id":{"$oid":"5ea81db02b263c4810ebbfbf"},"name":"ב/9","lat":"31.25591188800007","lon":"34.79636985600007","address":"Mish'ol ibn Gabirol 4/א, Beersheba, Israel","status":"open","capacity":"1.25 meter per person"}
{"_id":{"$oid":"5ea81db12b263c4810ebbfc0"},"name":"ר/11","lat":"31.27101569100006","lon":"34.806238138000026","address":"David Yellin St 41, Be'er Sheva, Israel","status":"open","capacity":"1.25 meter per person"}
{"_id":{"$oid":"5ea81db12b263c4810ebbfc1"},"name":"ר/4","lat":"31.27120549700004","lon":"34.80892102100006","address":"Aharon Katsir St 1, Be'er Sheva, Israel","status":"open","capacity":"1.25 meter per person"}
{"_id":{"$oid":"5ea81db22b263c4810ebbfc2"},"name":"רמות/5","lat":"31.27035672200003","lon":"34.809585251000044","address":"Bernahrd ve-Herman Zondak St 28, Be'er Sheva, Israel","status":"open","capacity":"1.25 meter per person"}
{"_id":{"$oid":"5ea81db32b263c4810ebbfc3"},"name":"ר/3","lat":"31.269982842000047","lon":"34.80860362900006","address":"Vaksman St 22, Be'er Sheva, Israel","status":"open","capacity":"1.25 meter per person"}
{"_id":{"$oid":"5ea81db32b263c4810ebbfc4"},"name":"רמות/4","lat":"31.269822712000064","lon":"34.80935727800005","address":"Bernahrd ve-Herman Zondak St 22, Be'er Sheva, Israel","status":"open","capacity":"1.25 meter per person"}
{"_id":{"$oid":"5ea81db42b263c4810ebbfc5"},"name":"רמות/3","lat":"31.26930420900004","lon":"34.80912605100008","address":"Bernahrd ve-Herman Zondak St 22, Be'er Sheva, Israel","status":"open","capacity":"1.25 meter per person"}
{"_id":{"$oid":"5ea81db42b263c4810ebbfc6"},"name":"ר/9","lat":"31.26999011600003","lon":"34.80677401200006","address":"Tur Sinai St 14, Be'er Sheva, Israel","status":"open","capacity":"1.25 meter per person"}
{"_id":{"$oid":"5ea81db52b263c4810ebbfc7"},"name":"רמות/2","lat":"31.268780106000065","lon":"34.80890927100006","address":"Erlanger St 21, Be'er Sheva, Israel","status":"open","capacity":"1.25 meter per person"}
{"_id":{"$oid":"5ea81db62b263c4810ebbfc8"},"name":"רמות/1","lat":"31.26825275300007","lon":"34.80868059900007","address":"Mish'ol Lilian 5, Beersheba, Israel","status":"open","capacity":"1.25 meter per person"}
{"_id":{"$oid":"5ea81db62b263c4810ebbfc9"},"name":"ר/1","lat":"31.26834514500007","lon":"34.807912927000075","address":"Michaelsohn St 17, Be'er Sheva, Israel","status":"open","capacity":"1.25 meter per person"}
{"_id":{"$oid":"5ea81db72b263c4810ebbfca"},"name":"ר/13","lat":"31.270695158000024","lon":"34.80432322900003","address":"Tsvi Segal St 8, Be'er Sheva, Israel","status":"open","capacity":"1.25 meter per person"}
{"_id":{"$oid":"5ea81dd62b263c4810ebbfcb"},"name":"ר/16","lat":"31.27323147000004","lon":"34.80043996200004","address":"Isidor Rivi St 2, Be'er Sheva, Israel","status":"open","capacity":"1.25 meter per person"}
{"_id":{"$oid":"5ea81dd62b263c4810ebbfcc"},"name":"רמות/8","lat":"31.27333432000006","lon":"34.80886673900005","address":"Mish'ol Prof. Ya'akov Avraham Braver 23, Beersheba, Israel","status":"open","capacity":"1.25 meter per person"}
{"_id":{"$oid":"5ea81dd72b263c4810ebbfcd"},"name":"רמות/9","lat":"31.273792281000055","lon":"34.80850672300005","address":"Mish'ol Prof. Ya'akov Avraham Braver 73-95, Beersheba, Israel","status":"open","capacity":"1.25 meter per person"}
{"_id":{"$oid":"5ea81dd72b263c4810ebbfce"},"name":"רמות/7","lat":"31.272874108000053","lon":"34.80924446700004","address":"Mish'ol Prof. Ya'akov Avraham Braver 13, Beersheba, Israel","status":"open","capacity":"1.25 meter per person"}
{"_id":{"$oid":"5ea81dd82b263c4810ebbfcf"},"name":"רמות/10","lat":"31.274249592000047","lon":"34.80813547500003","address":"Mish'ol Prof. Ya'akov Avraham Braver 73-95, Beersheba, Israel","status":"open","capacity":"1.25 meter per person"}
{"_id":{"$oid":"5ea81dd92b263c4810ebbfd0"},"name":"רמות/11","lat":"31.274657261000073","lon":"34.80779086500007","address":"Mish'ol Prof. Ya'akov Avraham Braver 63, Beersheba, 8486934, Israel","status":"open","capacity":"1.25 meter per person"}
{"_id":{"$oid":"5ea81dd92b263c4810ebbfd1"},"name":"רמות/6","lat":"31.272394175000045","lon":"34.80962157400006","address":"Mish'ol Prof. Ya'akov Avraham Braver 13, Beersheba, Israel","status":"open","capacity":"1.25 meter per person"}
{"_id":{"$oid":"5ea81dda2b263c4810ebbfd2"},"name":"ר/22","lat":"31.27394324000005","lon":"34.80693080100008","address":"Rudolf Bloch St 64, Be'er Sheva, Israel","status":"open","capacity":"1.25 meter per person"}
{"_id":{"$oid":"5ea81dda2b263c4810ebbfd3"},"name":"ר/20","lat":"31.27447600800008","lon":"34.806502575000025","address":"Ginzburg St 42, Be'er Sheva, Israel","status":"open","capacity":"1.25 meter per person"}
{"_id":{"$oid":"5ea81ddb2b263c4810ebbfd4"},"name":"ר/14","lat":"31.271704557000078","lon":"34.803725514000064","address":"Shmu'el Samburski St 10, Be'er Sheva, Israel","status":"open","capacity":"1.25 meter per person"}
{"_id":{"$oid":"5ea81ddc2b263c4810ebbfd5"},"name":"ר/19","lat":"31.272963822000065","lon":"34.802776814000026","address":"Max Born St 2, Be'er Sheva, Israel","status":"open","capacity":"1.25 meter per person"}
{"_id":{"$oid":"5ea81ddc2b263c4810ebbfd6"},"name":"ר/25","lat":"31.27571564300007","lon":"34.80273257700003","address":"Rene Cassin St 60, Be'er Sheva, Israel","status":"open","capacity":"1.25 meter per person"}
{"_id":{"$oid":"5ea81ddd2b263c4810ebbfd7"},"name":"ר/18","lat":"31.274127841000052","lon":"34.80244651400005","address":"Mikha'el Zohari St 16, Be'er Sheva, Israel","status":"open","capacity":"1.25 meter per person"}
{"_id":{"$oid":"5ea81ddd2b263c4810ebbfd8"},"name":"ר/24","lat":"31.274632435000058","lon":"34.80256689700008","address":"Yokhanan Linder St 24, Be'er Sheva, Israel","status":"open","capacity":"1.25 meter per person"}
{"_id":{"$oid":"5ea81dde2b263c4810ebbfd9"},"name":"ר/21","lat":"31.27459690200004","lon":"34.804125362000036","address":"Max Born St 40, Be'er Sheva, Israel","status":"open","capacity":"1.25 meter per person"}
{"_id":{"$oid":"5ea81ddf2b263c4810ebbfda"},"name":"ר/15","lat":"31.271494137000047","lon":"34.802364975000046","address":"Alfred Fried Prof St 22, Be'er Sheva, Israel","status":"open","capacity":"1.25 meter per person"}
{"_id":{"$oid":"5ea81ddf2b263c4810ebbfdb"},"name":"ר/12","lat":"31.271845761000066","lon":"34.805518128000074","address":"Khanokh Albek St 39, Be'er Sheva, Israel","status":"open","capacity":"1.25 meter per person"}
{"_id":{"$oid":"5ea81de02b263c4810ebbfdc"},"name":"רמות/12","lat":"31.275141078000047","lon":"34.807438912000066","address":"Prof. Mikha'el Even Ari St 12, Be'er Sheva, Israel","status":"open","capacity":"1.25 meter per person"}
{"_id":{"$oid":"5ea81de12b263c4810ebbfdd"},"name":"רמות/13","lat":"31.27558942400003","lon":"34.80701499600008","address":"Prof. Mikha'el Even Ari St 29, Be'er Sheva, Israel","status":"open","capacity":"1.25 meter per person"}
{"_id":{"$oid":"5ea81de12b263c4810ebbfde"},"name":"רמות/14","lat":"31.275929744000052","lon":"34.80649105100008","address":"Mish'ol Prof. Ya'akov Avraham Braver 109, Beersheba, Israel","status":"open","capacity":"1.25 meter per person"}
{"_id":{"$oid":"5ea81de22b263c4810ebbfdf"},"name":"נע/22","lat":"31.264930320000076","lon":"34.760429498000065","address":"Ephraim Luzon St 16, Be'er Sheva, Israel","status":"open","capacity":"1.25 meter per person"}
{"_id":{"$oid":"5ea81de22b263c4810ebbfe0"},"name":"נע/10","lat":"31.270103943000038","lon":"34.763911704000066","address":"Bilhah St 13, Be'er Sheva, Israel","status":"open","capacity":"1.25 meter per person"}
{"_id":{"$oid":"5ea81de32b263c4810ebbfe1"},"name":"נע/17","lat":"31.265940989000057","lon":"34.76562109400004","address":"Avshalom St 11, Be'er Sheva, Israel","status":"open","capacity":"1.25 meter per person"}
{"_id":{"$oid":"5ea81de42b263c4810ebbfe2"},"name":"נע/16","lat":"31.266988738000066","lon":"34.766420751000055","address":"Amnon St 32, Be'er Sheva, Israel","status":"open","capacity":"1.25 meter per person"}
{"_id":{"$oid":"5ea81de42b263c4810ebbfe3"},"name":"נע/12","lat":"31.269783330000053","lon":"34.76089550900008","address":"Bat Sheva St 15, Be'er Sheva, Israel","status":"open","capacity":"1.25 meter per person"}
{"_id":{"$oid":"5ea81de52b263c4810ebbfe4"},"name":"נע/9","lat":"31.270431544000076","lon":"34.76307320600006","address":"Puah St 4, Be'er Sheva, Israel","status":"open","capacity":"1.25 meter per person"}
{"_id":{"$oid":"5ea81de62b263c4810ebbfe5"},"name":"נע/23","lat":"31.266575474000035","lon":"34.75984507900006","address":"Belkind St 4, Be'er Sheva, Israel","status":"open","capacity":"1.25 meter per person"}
{"_id":{"$oid":"5ea81de62b263c4810ebbfe6"},"name":"נע/21","lat":"31.266131746000042","lon":"34.76110681000006","address":"Sara ve-Aharon Ahronson St 25, Be'er Sheva, Israel","status":"open","capacity":"1.25 meter per person"}
{"_id":{"$oid":"5ea81de72b263c4810ebbfe7"},"name":"בקע/2","lat":"31.22150080700004","lon":"34.775540274000036","address":"Moshe Hovav/Ya'akov Hazma, Be'er Sheva, Israel","status":"open","capacity":"1.25 meter per person"}
{"_id":{"$oid":"5ea81de72b263c4810ebbfe8"},"name":"בקע/15","lat":"31.224164194000025","lon":"34.778900631000056","address":"Tsviya Ve-Yitshak St 15, Be'er Sheva, Israel","status":"open","capacity":"1.25 meter per person"}
{"_id":{"$oid":"5ea81de82b263c4810ebbfe9"},"name":"בקע/10","lat":"31.223587228000042","lon":"34.77741030900006","address":"Khanokh Gibton St 15, Be'er Sheva, Israel","status":"open","capacity":"1.25 meter per person"}
{"_id":{"$oid":"5ea81de92b263c4810ebbfea"},"name":"בקע/14","lat":"31.225833694000073","lon":"34.77860027400004","address":"Reis St 9, Be'er Sheva, Israel","status":"open","capacity":"1.25 meter per person"}
{"_id":{"$oid":"5ea81de92b263c4810ebbfeb"},"name":"בקע/5","lat":"31.222024801000032","lon":"34.772666625000056","address":"Paul Ben Khayim St 19, Be'er Sheva, Israel","status":"open","capacity":"1.25 meter per person"}
{"_id":{"$oid":"5ea81dea2b263c4810ebbfec"},"name":"בקע/1","lat":"31.219757049000066","lon":"34.773724196000046","address":"Moshe Khovav St 2, Be'er Sheva, Israel","status":"open","capacity":"1.25 meter per person"}
{"_id":{"$oid":"5ea81deb2b263c4810ebbfed"},"name":"בקע/4","lat":"31.221235918000048","lon":"34.771815521000065","address":"Paul Ben Khayim St 3, Be'er Sheva, Israel","status":"open","capacity":"1.25 meter per person"}
{"_id":{"$oid":"5ea81deb2b263c4810ebbfee"},"name":"בקע/11","lat":"31.224912993000032","lon":"34.77566904400004","address":"Khanokh Gibton St 52, Be'er Sheva, Israel","status":"open","capacity":"1.25 meter per person"}
{"_id":{"$oid":"5ea81dec2b263c4810ebbfef"},"name":"בקע/13","lat":"31.224000586000045","lon":"34.78023540100003","address":"Tsviya Ve-Yitshak St 46, Be'er Sheva, Israel","status":"open","capacity":"1.25 meter per person"}
{"_id":{"$oid":"5ea81dec2b263c4810ebbff0"},"name":"בקע/16","lat":"31.226181025000074","lon":"34.78026958600003","address":"Enzo Sereni St 3, Be'er Sheva, Israel","status":"open","capacity":"1.25 meter per person"}
{"_id":{"$oid":"5ea81ded2b263c4810ebbff1"},"name":"בקע/8","lat":"31.223021734000042","lon":"34.776331449000054","address":"Moshe Khovav St 58, Be'er Sheva, Israel","status":"open","capacity":"1.25 meter per person"}
{"_id":{"$oid":"5ea81dee2b263c4810ebbff2"},"name":"בקע/9","lat":"31.223806600000046","lon":"34.77530871600004","address":"Le'a Porat St 9, Be'er Sheva, Israel","status":"open","capacity":"1.25 meter per person"}
{"_id":{"$oid":"5ea81dee2b263c4810ebbff3"},"name":"בקע/3","lat":"31.220976978000067","lon":"34.77435831200006","address":"Moshe Hovav/Menahem Avidom, Be'er Sheva, Israel","status":"open","capacity":"1.25 meter per person"}
{"_id":{"$oid":"5ea81def2b263c4810ebbff4"},"name":"בקע/6","lat":"31.222977471000036","lon":"34.77361599900007","address":"Paul Ben Khayim /Ya'akov Hazma, Be'er Sheva, Israel","status":"open","capacity":"1.25 meter per person"}
{"_id":{"$oid":"5ea81df02b263c4810ebbff5"},"name":"נ/2","lat":"31.232178626000064","lon":"34.79237489700006","address":"Sheizaf St 2, Be'er Sheva, Israel","status":"open","capacity":"1.25 meter per person"}
{"_id":{"$oid":"5ea81df02b263c4810ebbff6"},"name":"נ/1","lat":"31.232436934000077","lon":"34.78033953000005","address":"Dudaim St 4, Be'er Sheva, Israel","status":"open","capacity":"1.25 meter per person"}
{"_id":{"$oid":"5ea81df12b263c4810ebbff7"},"name":"רסקו/2","lat":"31.243122922000055","lon":"34.77973878100005","address":"Negba St 97, Be'er Sheva, Israel","status":"open","capacity":"1.25 meter per person"}
{"_id":{"$oid":"5ea81df12b263c4810ebbff8"},"name":"ע/9","lat":"31.235916617000044","lon":"34.78438076400005","address":"Nahum St 5, Be'er Sheva, Israel","status":"open","capacity":"1.25 meter per person"}
{"_id":{"$oid":"5ea81df22b263c4810ebbff9"},"name":"ע/2","lat":"31.238806793000037","lon":"34.78472582400008","address":"Smilanski St 61, Be'er Sheva, Israel","status":"open","capacity":"1.25 meter per person"}
{"_id":{"$oid":"5ea81df32b263c4810ebbffa"},"name":"ע/1","lat":"31.23706512800004","lon":"34.78175524000005","address":"פארק ילדים, Mish'ol Dan, Beersheba, Israel","status":"open","capacity":"1.25 meter per person"}
{"_id":{"$oid":"5ea81df32b263c4810ebbffb"},"name":"א/7","lat":"31.24825906800004","lon":"34.79249850400004","address":"Sokolov St 1, Be'er Sheva, Israel","status":"open","capacity":"1.25 meter per person"}
{"_id":{"$oid":"5ea81df42b263c4810ebbffc"},"name":"א/14","lat":"31.251491909000038","lon":"34.78681265400007","address":"Derech HaMeshahrerim 73, Beersheba, Israel","status":"open","capacity":"1.25 meter per person"}
{"_id":{"$oid":"5ea81df52b263c4810ebbffd"},"name":"א/13","lat":"31.25043923800007","lon":"34.789983894000045","address":"Basel St 58, Be'er Sheva, Israel","status":"open","capacity":"1.25 meter per person"}
{"_id":{"$oid":"5ea81df52b263c4810ebbffe"},"name":"א/3","lat":"31.250493307000056","lon":"34.789128825000034","address":"Basel St 50, Be'er Sheva, Israel","status":"open","capacity":"1.25 meter per person"}
{"_id":{"$oid":"5ea81df62b263c4810ebbfff"},"name":"א/15","lat":"31.25180831600005","lon":"34.78795333200003","address":"Derech HaMeshahrerim 67, Beersheba, Israel","status":"open","capacity":"1.25 meter per person"}
{"_id":{"$oid":"5ea81df72b263c4810ebc000"},"name":"א/6","lat":"31.24615337700004","lon":"34.794213641000056","address":"Balfour St 12, Be'er Sheva, Israel","status":"open","capacity":"1.25 meter per person"}
{"_id":{"$oid":"5ea81df72b263c4810ebc001"},"name":"א/8","lat":"31.25063073900003","lon":"34.79455329600006","address":"Unnamed Road, Beersheba, Israel","status":"open","capacity":"1.25 meter per person"}
{"_id":{"$oid":"5ea81df82b263c4810ebc002"},"name":"ב/11","lat":"31.255636150000043","lon":"34.790354679000075","address":"Betsal'el St 49, Be'er Sheva, Israel","status":"open","capacity":"1.25 meter per person"}
{"_id":{"$oid":"5ea81df92b263c4810ebc003"},"name":"ב/3","lat":"31.256696517000023","lon":"34.795988882000074","address":"Mish'ol ibn Gabirol 7, Beersheba, Israel","status":"open","capacity":"1.25 meter per person"}
{"_id":{"$oid":"5ea81df92b263c4810ebc004"},"name":"ב/4","lat":"31.25495720500004","lon":"34.79417254800006","address":"Eli'ezer Ben Yehuda St 17, Be'er Sheva, Israel","status":"open","capacity":"1.25 meter per person"}
{"_id":{"$oid":"5ea81dfa2b263c4810ebc005"},"name":"ב/10","lat":"31.257290099000045","lon":"34.795403445000034","address":"Tchernikhovski St 12, Be'er Sheva, Israel","status":"open","capacity":"1.25 meter per person"}
{"_id":{"$oid":"5ea81dfa2b263c4810ebc006"},"name":"ב/1","lat":"31.254601440000044","lon":"34.78914436100007","address":"Betsal'el St 26, Be'er Sheva, Israel","status":"open","capacity":"1.25 meter per person"}
{"_id":{"$oid":"5ea81dfb2b263c4810ebc007"},"name":"ב/6","lat":"31.256567933000042","lon":"34.793907173000036","address":"Graets St 7, Be'er Sheva, Israel","status":"open","capacity":"1.25 meter per person"}
{"_id":{"$oid":"5ea81dfc2b263c4810ebc008"},"name":"ב/5","lat":"31.25503130100003","lon":"34.79650420000007","address":"Haim Nachman Bialik St 1, Be'er Sheva, Israel","status":"open","capacity":"1.25 meter per person"}
{"_id":{"$oid":"5ea81dfc2b263c4810ebc009"},"name":"ב/7","lat":"31.257517387000064","lon":"34.78929479800007","address":"Se'adya Ga'on St 16, Be'er Sheva, Israel","status":"open","capacity":"1.25 meter per person"}
{"_id":{"$oid":"5ea81dfd2b263c4810ebc00a"},"name":"בא/1","lat":"31.25792453300005","lon":"34.78154786600004","address":"Bnei Or St 70, Be'er Sheva, Israel","status":"open","capacity":"1.25 meter per person"}
{"_id":{"$oid":"5ea81dfe2b263c4810ebc00b"},"name":"בא/3","lat":"31.257905649000065","lon":"34.783656121000035","address":"Bnei Or St 44, Be'er Sheva, Israel","status":"open","capacity":"1.25 meter per person"}
{"_id":{"$oid":"5ea81dfe2b263c4810ebc00c"},"name":"בקע/7","lat":"31.222656567000058","lon":"34.77515807300006","address":"Rut Shapira St 28, Be'er Sheva, Israel","status":"open","capacity":"1.25 meter per person"}
{"_id":{"$oid":"5ea81dff2b263c4810ebc00d"},"name":"בקע/12","lat":"31.224564345000033","lon":"34.780917947000034","address":"Tsviya Ve-Yitshak St 49, Be'er Sheva, Israel","status":"open","capacity":"1.25 meter per person"}
{"_id":{"$oid":"5ea81dff2b263c4810ebc00e"},"name":"רסקו/1","lat":"31.242684396000072","lon":"34.78182231200003","address":"Negba St 60, Be'er Sheva, Israel","status":"open","capacity":"1.25 meter per person"}
{"_id":{"$oid":"5ea81e002b263c4810ebc00f"},"name":"ע/7","lat":"31.240248009000027","lon":"34.78161783300004","address":"Efrayim St 1, Be'er Sheva, Israel","status":"open","capacity":"1.25 meter per person"}
{"_id":{"$oid":"5ea81e012b263c4810ebc010"},"name":"ע/4","lat":"31.23996100900007","lon":"34.78334433500004","address":"Smilanski St 79, Be'er Sheva, Israel","status":"open","capacity":"1.25 meter per person"}
{"_id":{"$oid":"5ea81e012b263c4810ebc011"},"name":"נע/14","lat":"31.267945217000033","lon":"34.76235113700005","address":"מרים הנביאה, Be'er Sheva, Israel","status":"open","capacity":"1.25 meter per person"}
{"_id":{"$oid":"5ea81e022b263c4810ebc012"},"name":"נע/20","lat":"31.263829858000065","lon":"34.76264292900004","address":"David ha-Re'uveni St 50, Be'er Sheva, Israel","status":"open","capacity":"1.25 meter per person"}
{"_id":{"$oid":"5ea81e022b263c4810ebc013"},"name":"נע/1","lat":"31.27023659500003","lon":"34.77178594900005","address":"Avidov St 2, Be'er Sheva, Israel","status":"open","capacity":"1.25 meter per person"}
{"_id":{"$oid":"5ea81e032b263c4810ebc014"},"name":"נע/2","lat":"31.26987534700004","lon":"34.77095772000007","address":"Arnon St 14, Be'er Sheva, Israel","status":"open","capacity":"1.25 meter per person"}
{"_id":{"$oid":"5ea81e042b263c4810ebc015"},"name":"נע/19","lat":"31.26514481600003","lon":"34.763615393000066","address":"Zrubavel St 12, Be'er Sheva, Israel","status":"open","capacity":"1.25 meter per person"}
{"_id":{"$oid":"5ea81e042b263c4810ebc016"},"name":"נע/13","lat":"31.269064833000073","lon":"34.76190931600007","address":"Bat Sheva St 5, Be'er Sheva, Israel","status":"open","capacity":"1.25 meter per person"}
{"_id":{"$oid":"5ea81e052b263c4810ebc017"},"name":"נע/15","lat":"31.26816997700007","lon":"34.76446333700005","address":"Rivka St 6, Be'er Sheva, Israel","status":"open","capacity":"1.25 meter per person"}
{"_id":{"$oid":"5ea81e062b263c4810ebc018"},"name":"נע/11","lat":"31.26937708400004","lon":"34.76487284700005","address":"Ruth St 24, Be'er Sheva, Israel","status":"open","capacity":"1.25 meter per person"}
{"_id":{"$oid":"5ea81e062b263c4810ebc019"},"name":"נע/24","lat":"31.265713315000028","lon":"34.75778121600007","address":"Kdoshei Saloniki St 12, Be'er Sheva, Israel","status":"open","capacity":"1.25 meter per person"}
{"_id":{"$oid":"5ea81e072b263c4810ebc01a"},"name":"נע/4","lat":"31.270953035000048","lon":"34.770979358000034","address":"Miryam Yalan Stekelis St 5, Be'er Sheva, Israel","status":"open","capacity":"1.25 meter per person"}
{"_id":{"$oid":"5ea81e072b263c4810ebc01b"},"name":"נע/8","lat":"31.27220407200008","lon":"34.76567310300004","address":"Anda Amir Pinkerfeld St 54, Be'er Sheva, Israel","status":"open","capacity":"1.25 meter per person"}
{"_id":{"$oid":"5ea81e082b263c4810ebc01c"},"name":"נע/18","lat":"31.26450337500006","lon":"34.76437993600007","address":"David ha-Re'uveni St 12, Be'er Sheva, Israel","status":"open","capacity":"1.25 meter per person"}
{"_id":{"$oid":"5ea81e092b263c4810ebc01d"},"name":"נע/7","lat":"31.271228369000028","lon":"34.76754747800004","address":"Rodenski/Pinkerfield, Be'er Sheva, Israel","status":"open","capacity":"1.25 meter per person"}
{"_id":{"$oid":"5ea81e092b263c4810ebc01e"},"name":"נע/5","lat":"31.27158110000005","lon":"34.769529817000034","address":"Shmuel Rodensky/Yehoshu'a Bartonov, Be'er Sheva, Israel","status":"open","capacity":"1.25 meter per person"}
{"_id":{"$oid":"5ea81e0a2b263c4810ebc01f"},"name":"מ/1","lat":"31.256697924000036","lon":"34.77330567200005","address":"Alfasi St 5, Be'er Sheva, Israel","status":"open","capacity":"1.25 meter per person"}
{"_id":{"$oid":"5ea81e0a2b263c4810ebc020"},"name":"מ/2","lat":"31.257101161000037","lon":"34.77341536800003","address":"Alfasi St 5, Be'er Sheva, Israel","status":"open","capacity":"1.25 meter per person"}
{"_id":{"$oid":"5ea81e0b2b263c4810ebc021"},"name":"ר/10","lat":"31.269666226000027","lon":"34.805293723000034","address":"Bar Hillel St 12, Be'er Sheva, Israel","status":"open","capacity":"1.25 meter per person"}
{"_id":{"$oid":"5ea81e0c2b263c4810ebc022"},"name":"ר/23","lat":"31.275281239000037","lon":"34.805267585000024","address":"Prof. Moshe Yitskhak St 19, Be'er Sheva, Israel","status":"open","capacity":"1.25 meter per person"}
{"_id":{"$oid":"5ea81e0c2b263c4810ebc023"},"name":"ר/17","lat":"31.274241079000035","lon":"34.800891017000026","address":"Gavri'el St 23, Be'er Sheva, Israel","status":"open","capacity":"1.25 meter per person"}
{"_id":{"$oid":"5ea81e0d2b263c4810ebc024"},"name":"ר/2","lat":"31.269109099000048","lon":"34.80830698700004","address":"Erlanger St 21, Be'er Sheva, Israel","status":"open","capacity":"1.25 meter per person"}
{"_id":{"$oid":"5ea81e0e2b263c4810ebc025"},"name":"ר/7","lat":"31.272405753000044","lon":"34.80672107500004","address":"Bergson St 19, Be'er Sheva, Israel","status":"open","capacity":"1.25 meter per person"}
{"_id":{"$oid":"5ea81e0e2b263c4810ebc026"},"name":"ג/43","lat":"31.259808640000074","lon":"34.80885183400005","address":"Rotenberg St 10, Be'er Sheva, Israel","status":"open","capacity":"1.25 meter per person"}
{"_id":{"$oid":"5ea81e0f2b263c4810ebc027"},"name":"ג/46","lat":"31.250707328000033","lon":"34.801984737000055","address":"Yad Vashem St 18, Be'er Sheva, Israel","status":"open","capacity":"1.25 meter per person"}
{"_id":{"$oid":"5ea81e0f2b263c4810ebc028"},"name":"ג/11","lat":"31.251678113000025","lon":"34.80657439700008","address":"Derech HaShalom 46, Beersheba, Israel","status":"open","capacity":"1.25 meter per person"}
{"_id":{"$oid":"5ea81e102b263c4810ebc029"},"name":"ג/12","lat":"31.25253210900007","lon":"34.810013871000024","address":"Hibat Tsiyon St 12-46, Be'er Sheva, Israel","status":"open","capacity":"1.25 meter per person"}
{"_id":{"$oid":"5ea81e112b263c4810ebc02a"},"name":"ג/29","lat":"31.248661324000068","lon":"34.80812640900007","address":"Ze'ev Jabotinski St 18, Be'er Sheva, Israel","status":"open","capacity":"1.25 meter per person"}
{"_id":{"$oid":"5ea81e112b263c4810ebc02b"},"name":"ה/1","lat":"31.25545106900006","lon":"34.77803472800008","address":"HaMeri Haivri St 140, Be'er Sheva, Israel","status":"open","capacity":"1.25 meter per person"}
{"_id":{"$oid":"5ea81e122b263c4810ebc02c"},"name":"ה/5","lat":"31.249019485000076","lon":"34.782620235000024","address":"Khogla St 11, Be'er Sheva, Israel","status":"open","capacity":"1.25 meter per person"}
{"_id":{"$oid":"5ea81e122b263c4810ebc02d"},"name":"ו/2","lat":"31.267008799000052","lon":"34.77078584100008","address":"Gibor St 4, Be'er Sheva, Israel","status":"open","capacity":"1.25 meter per person"}
{"_id":{"$oid":"5ea81e132b263c4810ebc02e"},"name":"ו/4","lat":"31.268288835000078","lon":"34.77231907400005","address":"Steinberg St 21, Be'er Sheva, Israel","status":"open","capacity":"1.25 meter per person"}
{"_id":{"$oid":"5ea81e142b263c4810ebc02f"},"name":"ו/5","lat":"31.269309503000045","lon":"34.774894422000045","address":"Kheshin St 18, Be'er Sheva, Israel","status":"open","capacity":"1.25 meter per person"}
{"_id":{"$oid":"5ea81e142b263c4810ebc030"},"name":"ה/4","lat":"31.250801417000048","lon":"34.77918176000003","address":"Sderot Ye'elim 38, Beersheba, Israel","status":"open","capacity":"1.25 meter per person"}
{"_id":{"$oid":"5ea81e152b263c4810ebc031"},"name":"ד/7","lat":"31.26809726700003","lon":"34.794869850000055","address":"HaMachteshim St 114, Be'er Sheva, Israel","status":"open","capacity":"1.25 meter per person"}
{"_id":{"$oid":"5ea81e162b263c4810ebc032"},"name":"ד/47","lat":"31.267967285000054","lon":"34.797090780000076","address":"Kadesh St 26, Be'er Sheva, Israel","status":"open","capacity":"1.25 meter per person"}
{"_id":{"$oid":"5ea81e162b263c4810ebc033"},"name":"ד/42","lat":"31.267170004000036","lon":"34.795007293000026","address":"Yotvata St 4, Be'er Sheva, Israel","status":"open","capacity":"1.25 meter per person"}
{"_id":{"$oid":"5ea81e172b263c4810ebc034"},"name":"ד/17","lat":"31.26101713500003","lon":"34.79702511000005","address":"Shlomo ha-Melekh St 7, Be'er Sheva, Israel","status":"open","capacity":"1.25 meter per person"}
{"_id":{"$oid":"5ea81e182b263c4810ebc035"},"name":"ד/32","lat":"31.260487156000067","lon":"34.79658721900006","address":"Shlomo ha-Melekh St 10, Be'er Sheva, Israel","status":"open","capacity":"1.25 meter per person"}
{"_id":{"$oid":"5ea81e182b263c4810ebc036"},"name":"ד/16","lat":"31.261171405000027","lon":"34.79533861500005","address":"Kikar HaKenizi 2, Beersheba, Israel","status":"open","capacity":"1.25 meter per person"}
{"_id":{"$oid":"5ea81e192b263c4810ebc037"},"name":"ד/18","lat":"31.260286697000026","lon":"34.79354432800005","address":"Uziya HaMelech St 24, Be'er Sheva, Israel","status":"open","capacity":"1.25 meter per person"}
{"_id":{"$oid":"5ea81e192b263c4810ebc038"},"name":"ד/15","lat":"31.26085646300004","lon":"34.79291930800008","address":"Shim'on Bar Giyora St 31, Be'er Sheva, Israel","status":"open","capacity":"1.25 meter per person"}
{"_id":{"$oid":"5ea81e1a2b263c4810ebc039"},"name":"ד/41","lat":"31.25895700800004","lon":"34.792935397000065","address":"Rabbi Akiva St 9, Be'er Sheva, Israel","status":"open","capacity":"1.25 meter per person"}
{"_id":{"$oid":"5ea81e1b2b263c4810ebc03a"},"name":"ד/31","lat":"31.266908885000078","lon":"34.793959803000064","address":"Mish'ol Paran 97, Beersheba, Israel","status":"open","capacity":"1.25 meter per person"}
{"_id":{"$oid":"5ea81e1b2b263c4810ebc03b"},"name":"ד/33","lat":"31.264312395000047","lon":"34.79524779800005","address":"Alfred Rosi St 71, Be'er Sheva, Israel","status":"open","capacity":"1.25 meter per person"}
{"_id":{"$oid":"5ea81e1c2b263c4810ebc03c"},"name":"ד/23","lat":"31.264425070000073","lon":"34.79707321700005","address":"Alexander Yannai St 14, Be'er Sheva, Israel","status":"open","capacity":"1.25 meter per person"}
{"_id":{"$oid":"5ea81e1c2b263c4810ebc03d"},"name":"ד/10","lat":"31.262675503000025","lon":"34.79446444000007","address":"Avraham Avinu St 4, Be'er Sheva, Israel","status":"open","capacity":"1.25 meter per person"}
{"_id":{"$oid":"5ea81e1d2b263c4810ebc03e"},"name":"ד/22","lat":"31.26262838400004","lon":"34.797426589000054","address":"Alexander Yannai St 20/4, Be'er Sheva, Israel","status":"open","capacity":"1.25 meter per person"}
{"_id":{"$oid":"5ea81e1e2b263c4810ebc03f"},"name":"ד/20","lat":"31.26635410800003","lon":"34.792997642000046","address":"Eliyahu ha-Navi St 102, Be'er Sheva, Israel","status":"open","capacity":"1.25 meter per person"}
{"_id":{"$oid":"5ea81e1e2b263c4810ebc040"},"name":"ע/3","lat":"31.237869428000067","lon":"34.78549202100004","address":"Kfar Hadarom St 42, Be'er Sheva, Israel","status":"open","capacity":"1.25 meter per person"}
{"_id":{"$oid":"5ea81e1f2b263c4810ebc041"},"name":"ע/6","lat":"31.237196182000048","lon":"34.78899807500005","address":"Anielewicz St 11, Be'er Sheva, Israel","status":"open","capacity":"1.25 meter per person"}
{"_id":{"$oid":"5ea81e202b263c4810ebc042"},"name":"ג/19","lat":"31.252297618000057","lon":"34.804945893000024","address":"Derech HaShalom 30, Beersheba, Israel","status":"open","capacity":"1.25 meter per person"}
{"_id":{"$oid":"5ea81e202b263c4810ebc043"},"name":"ג/37","lat":"31.255127623000078","lon":"34.81009621800007","address":"Derech HaShalom 105, Beersheba, Israel","status":"open","capacity":"1.25 meter per person"}
{"_id":{"$oid":"5ea81e212b263c4810ebc044"},"name":"ג/38","lat":"31.25553667300005","lon":"34.808716111000024","address":"A.L. Ziso St 7, Be'er Sheva, Israel","status":"open","capacity":"1.25 meter per person"}
{"_id":{"$oid":"5ea81e212b263c4810ebc045"},"name":"ד/60","lat":"31.271009238000033","lon":"34.783396279000044","address":"Rabenu Tam St 54, Be'er Sheva, Israel","status":"open","capacity":"1.25 meter per person"}
{"_id":{"$oid":"5ea81e222b263c4810ebc046"},"name":"ד/59","lat":"31.269785926000054","lon":"34.785039933000064","address":"Ibn Ezra St 69, Be'er Sheva, Israel","status":"open","capacity":"1.25 meter per person"}
{"_id":{"$oid":"5ea81e232b263c4810ebc047"},"name":"א/2","lat":"31.24889880300003","lon":"34.79599897500003","address":"Moses Montefiore St 7, Be'er Sheva, Israel","status":"open","capacity":"1.25 meter per person"}
{"_id":{"$oid":"5ea81e232b263c4810ebc048"},"name":"ג/14","lat":"31.25019478300004","lon":"34.80513943600005","address":"Baskin St 7, Be'er Sheva, Israel","status":"open","capacity":"1.25 meter per person"}
{"_id":{"$oid":"5ea81e242b263c4810ebc049"},"name":"ג/15","lat":"31.250113594000027","lon":"34.802841956000066","address":"Yad Vashem St 23, Be'er Sheva, Israel","status":"open","capacity":"1.25 meter per person"}
{"_id":{"$oid":"5ea81e252b263c4810ebc04a"},"name":"ג/16","lat":"31.248703956000043","lon":"34.80615343900007","address":"Hage'ulim St 31, Be'er Sheva, Israel","status":"open","capacity":"1.25 meter per person"}
{"_id":{"$oid":"5ea81e252b263c4810ebc04b"},"name":"ג/17","lat":"31.248259593000057","lon":"34.80434470700004","address":"Hage'ulim St 20, Be'er Sheva, Israel","status":"open","capacity":"1.25 meter per person"}
{"_id":{"$oid":"5ea81e262b263c4810ebc04c"},"name":"ג/18","lat":"31.247643195000023","lon":"34.80726405300004","address":"Ze'ev Jabotinski St 2, Be'er Sheva, Israel","status":"open","capacity":"1.25 meter per person"}
{"_id":{"$oid":"5ea81e262b263c4810ebc04d"},"name":"ג/20","lat":"31.252913957000032","lon":"34.81146289000003","address":"Hibat Tsiyon St 38, Be'er Sheva, Israel","status":"open","capacity":"1.25 meter per person"}
{"_id":{"$oid":"5ea81e272b263c4810ebc04e"},"name":"ג/21","lat":"31.25624390100006","lon":"34.80618518800003","address":"Wingate St 36, Be'er Sheva, Israel","status":"open","capacity":"1.25 meter per person"}
{"_id":{"$oid":"5ea81e282b263c4810ebc04f"},"name":"ג/24","lat":"31.250285107000025","lon":"34.806567597000026","address":"Ha-Ma'apilim St 13, Be'er Sheva, Israel","status":"open","capacity":"1.25 meter per person"}
{"_id":{"$oid":"5ea81e282b263c4810ebc050"},"name":"ג/27","lat":"31.256160082000065","lon":"34.810376580000025","address":"Wingate St 1, Be'er Sheva, Israel","status":"open","capacity":"1.25 meter per person"}
{"_id":{"$oid":"5ea81e292b263c4810ebc051"},"name":"ג/28","lat":"31.251041686000065","lon":"34.803695480000044","address":"Halperin St 8, Be'er Sheva, Israel","status":"open","capacity":"1.25 meter per person"}
{"_id":{"$oid":"5ea81e2a2b263c4810ebc052"},"name":"ג/13","lat":"31.249713179000025","lon":"34.808598704000076","address":"Ze'ev Jabotinski St 19, Be'er Sheva, Israel","status":"open","capacity":"1.25 meter per person"}
{"_id":{"$oid":"5ea81e2a2b263c4810ebc053"},"name":"ג/42","lat":"31.25815035100004","lon":"34.811233825000045","address":"David Ben Gurion BLVD/Derech HaShalom, Be'er Sheva, Israel","status":"open","capacity":"1.25 meter per person"}
{"_id":{"$oid":"5ea81e2b2b263c4810ebc054"},"name":"ג/35","lat":"31.259015917000056","lon":"34.809843013000034","address":"Gush Etsyon St 87, Be'er Sheva, Israel","status":"open","capacity":"1.25 meter per person"}
{"_id":{"$oid":"5ea81e2b2b263c4810ebc055"},"name":"ג/34","lat":"31.258119760000056","lon":"34.80944356800006","address":"Khana Szenes St 19, Be'er Sheva, Israel","status":"open","capacity":"1.25 meter per person"}
{"_id":{"$oid":"5ea81e2c2b263c4810ebc056"},"name":"ג/5","lat":"31.25558649000004","lon":"34.808017291000056","address":"Gush Etsyon St 24, Be'er Sheva, Israel","status":"open","capacity":"1.25 meter per person"}
{"_id":{"$oid":"5ea81e2d2b263c4810ebc057"},"name":"ג/4","lat":"31.257155297000054","lon":"34.81033423500003","address":"Khana Szenes St 12, Be'er Sheva, Israel","status":"open","capacity":"1.25 meter per person"}
{"_id":{"$oid":"5ea81e2d2b263c4810ebc058"},"name":"ג/8","lat":"31.254918092000025","lon":"34.807090706000054","address":"Gush Etsyon St 27, Be'er Sheva, Israel","status":"open","capacity":"1.25 meter per person"}
{"_id":{"$oid":"5ea81e2e2b263c4810ebc059"},"name":"ג/6","lat":"31.254532030000064","lon":"34.803519503000075","address":"Khoma u-Migdal St 13, Be'er Sheva, Israel","status":"open","capacity":"1.25 meter per person"}
{"_id":{"$oid":"5ea81e2e2b263c4810ebc05a"},"name":"ג/45","lat":"31.24657262000005","lon":"34.808605526000065","address":"Ya'akov Gershfeld St 6550, Be'er Sheva, Israel","status":"open","capacity":"1.25 meter per person"}
{"_id":{"$oid":"5ea81e2f2b263c4810ebc05b"},"name":"ג/30","lat":"31.252072543000054","lon":"34.802861137000036","address":"Derech HaShalom 20, Beersheba, Israel","status":"open","capacity":"1.25 meter per person"}
{"_id":{"$oid":"5ea81e302b263c4810ebc05c"},"name":"ד/12","lat":"31.26159975400003","lon":"34.79374784300006","address":"Uziya HaMelech St 10, Be'er Sheva, Israel","status":"open","capacity":"1.25 meter per person"}
{"_id":{"$oid":"5ea81e312b263c4810ebc05d"},"name":"ד/28","lat":"31.272166347000052","lon":"34.79561867600006","address":"HaRav Menachem Gabbai St 1, Be'er Sheva, Israel","status":"open","capacity":"1.25 meter per person"}
{"_id":{"$oid":"5ea81e312b263c4810ebc05e"},"name":"ד/4","lat":"31.27097161100005","lon":"34.79358614100005","address":"HaKnesset St 32, Be'er Sheva, Israel","status":"open","capacity":"1.25 meter per person"}
{"_id":{"$oid":"5ea81e322b263c4810ebc05f"},"name":"ד/14","lat":"31.261658107000073","lon":"34.791918843000076","address":"Shim'on Bar Giyora St 18, Be'er Sheva, Israel","status":"open","capacity":"1.25 meter per person"}
{"_id":{"$oid":"5ea81e322b263c4810ebc060"},"name":"ד/24","lat":"31.264973377000047","lon":"34.79992937000003","address":"Yosef Ben Matityahu St 59, Be'er Sheva, Israel","status":"open","capacity":"1.25 meter per person"}
{"_id":{"$oid":"5ea81e332b263c4810ebc061"},"name":"ד/25","lat":"31.26584911300006","lon":"34.80118798800004","address":"Osvaldo Aranha St 85, Be'er Sheva, Israel","status":"open","capacity":"1.25 meter per person"}
{"_id":{"$oid":"5ea81e342b263c4810ebc062"},"name":"ד/36","lat":"31.268888678000053","lon":"34.801247481000075","address":"Ringelblum St 78, Be'er Sheva, Israel","status":"open","capacity":"1.25 meter per person"}
{"_id":{"$oid":"5ea81e342b263c4810ebc063"},"name":"ד/27","lat":"31.268304097000055","lon":"34.79234526700003","address":"Ha-Isiyim St 6, Be'er Sheva, Israel","status":"open","capacity":"1.25 meter per person"}
{"_id":{"$oid":"5ea81e352b263c4810ebc064"},"name":"ד/34","lat":"31.270712531000072","lon":"34.796962387000065","address":"Unnamed Road, Be'er Sheva, Israel","status":"open","capacity":"1.25 meter per person"}
{"_id":{"$oid":"5ea81e362b263c4810ebc065"},"name":"ד/3","lat":"31.27142828800004","lon":"34.79476675700005","address":"HaKnesset St 20, Be'er Sheva, Israel","status":"open","capacity":"1.25 meter per person"}
{"_id":{"$oid":"5ea81e362b263c4810ebc066"},"name":"ג/9","lat":"31.25476906800003","lon":"34.808673396000074","address":"Gush Etsyon St 10, Be'er Sheva, Israel","status":"open","capacity":"1.25 meter per person"}
{"_id":{"$oid":"5ea81e372b263c4810ebc067"},"name":"ג/44","lat":"31.257070663000036","lon":"34.806870170000025","address":"Gush Etsyon St 45, Be'er Sheva, Israel","status":"open","capacity":"1.25 meter per person"}
{"_id":{"$oid":"5ea81e372b263c4810ebc068"},"name":"ט/1","lat":"31.246592109000062","lon":"34.77658768500004","address":"Sderot Yerushalayim 36, Beersheba, Israel","status":"open","capacity":"1.25 meter per person"}
{"_id":{"$oid":"5ea81e382b263c4810ebc069"},"name":"ד/5","lat":"31.269205939000074","lon":"34.79294107000004","address":"Ha-Kana'im St 13, Be'er Sheva, Israel","status":"open","capacity":"1.25 meter per person"}
{"_id":{"$oid":"5ea81e392b263c4810ebc06a"},"name":"ע/5","lat":"31.24439156400007","lon":"34.791070099000024","address":"Asaf Simkhoni St 20, Be'er Sheva, Israel","status":"open","capacity":"1.25 meter per person"}
{"_id":{"$oid":"5ea81e392b263c4810ebc06b"},"name":"נ/3","lat":"31.23143041700007","lon":"34.793558258000076","address":"Yasmin St 7, Be'er Sheva, Israel","status":"open","capacity":"1.25 meter per person"}
{"_id":{"$oid":"5ea81e3a2b263c4810ebc06c"},"name":"ד/48","lat":"31.269208157000037","lon":"34.79546348800005","address":"Simtat Arad 48ד, Beersheba, Israel","status":"open","capacity":"1.25 meter per person"}
{"_id":{"$oid":"5ea81e3b2b263c4810ebc06d"},"name":"ד/6","lat":"31.269363072000033","lon":"34.794853197000066","address":"Gil'ad St 201, Be'er Sheva, Israel","status":"open","capacity":"1.25 meter per person"}
{"_id":{"$oid":"5ea81e3b2b263c4810ebc06e"},"name":"ד/53","lat":"31.270308577000037","lon":"34.786822716000074","address":"Ha-Talmud St 44, Be'er Sheva, Israel","status":"open","capacity":"1.25 meter per person"}
{"_id":{"$oid":"5ea81e3c2b263c4810ebc06f"},"name":"מ/7","lat":"31.259574327000053","lon":"34.78573204600008","address":"Mivtsa Nakhshon St 36, Be'er Sheva, Israel","status":"open","capacity":"1.25 meter per person"}
{"_id":{"$oid":"5ea81e3c2b263c4810ebc070"},"name":"ד/43","lat":"31.27006074600007","lon":"34.79565300300004","address":"Avraham Avinu St 60, Be'er Sheva, Israel","status":"open","capacity":"1.25 meter per person"}
{"_id":{"$oid":"5ea81e3d2b263c4810ebc071"},"name":"ב/2","lat":"31.25648755800006","lon":"34.79139583800003","address":"Ramkhal St 10, Be'er Sheva, Israel","status":"open","capacity":"1.25 meter per person"}
{"_id":{"$oid":"5ea81e3e2b263c4810ebc072"},"name":"ה/14","lat":"31.24791562000007","lon":"34.77965608300008","address":"Sinai St 36, Be'er Sheva, Israel","status":"open","capacity":"1.25 meter per person"}
{"_id":{"$oid":"5ea81e3e2b263c4810ebc073"},"name":"ה/15","lat":"31.248154741000064","lon":"34.781008178000036","address":"Ha-Arava St 39, Be'er Sheva, Israel","status":"open","capacity":"1.25 meter per person"}
{"_id":{"$oid":"5ea81e3f2b263c4810ebc074"},"name":"ה/10","lat":"31.254812955000034","lon":"34.77898084000003","address":"Patriya St 121, Be'er Sheva, Israel","status":"open","capacity":"1.25 meter per person"}
{"_id":{"$oid":"5ea81e3f2b263c4810ebc075"},"name":"ד/8","lat":"31.266566502000046","lon":"34.79487302200005","address":"Yotvata St 6, Be'er Sheva, Israel","status":"open","capacity":"1.25 meter per person"}
{"_id":{"$oid":"5ea81e402b263c4810ebc076"},"name":"ה/7","lat":"31.250463508000053","lon":"34.780569927000045","address":"HaAliya St 3, Be'er Sheva, Israel","status":"open","capacity":"1.25 meter per person"}
{"_id":{"$oid":"5ea81e412b263c4810ebc077"},"name":"ג/41","lat":"31.254182377000063","lon":"34.80237770600007","address":"Khoma u-Migdal St 5, Be'er Sheva, Israel","status":"open","capacity":"1.25 meter per person"}
{"_id":{"$oid":"5ea81e412b263c4810ebc078"},"name":"ד/19","lat":"31.26837912600007","lon":"34.796810434000065","address":"Sukkot St 8, Be'er Sheva, Israel","status":"open","capacity":"1.25 meter per person"}
{"_id":{"$oid":"5ea81e422b263c4810ebc079"},"name":"ד/51","lat":"31.271307544000024","lon":"34.78354120000006","address":"Ramban St 48, Be'er Sheva, Israel","status":"open","capacity":"1.25 meter per person"}
{"_id":{"$oid":"5ea81e432b263c4810ebc07a"},"name":"א/11","lat":"31.24829516400007","lon":"34.78921211800008","address":"Bialik/Basel, Be'er Sheva, Israel","status":"open","capacity":"1.25 meter per person"}
{"_id":{"$oid":"5ea81e432b263c4810ebc07b"},"name":"ר/6","lat":"31.273750758000062","lon":"34.80703833900003","address":"Rudolf Bloch St 64, Be'er Sheva, Israel","status":"open","capacity":"1.25 meter per person"}
{"_id":{"$oid":"5ea81e442b263c4810ebc07c"},"name":"ר/5","lat":"31.27259078900005","lon":"34.80801928000005","address":"Rudolf Bloch St 35, Be'er Sheva, Israel","status":"open","capacity":"1.25 meter per person"}
{"_id":{"$oid":"5ea81e442b263c4810ebc07d"},"name":"ג/32","lat":"31.25704040000005","lon":"34.80854958200007","address":"Haviva Reik St 6, Be'er Sheva, Israel","status":"open","capacity":"1.25 meter per person"}
{"_id":{"$oid":"5ea81e452b263c4810ebc07e"},"name":"ה/3","lat":"31.25269931500003","lon":"34.77931693600004","address":"Kafrisin St 16, Be'er Sheva, Israel","status":"open","capacity":"1.25 meter per person"}
{"_id":{"$oid":"5ea81e462b263c4810ebc07f"},"name":"ג/10","lat":"31.251797270000054","lon":"34.80255429400006","address":"Derech HaShalom 20, Beersheba, Israel","status":"open","capacity":"1.25 meter per person"}
{"_id":{"$oid":"5ea81e462b263c4810ebc080"},"name":"ו/1","lat":"31.266341600000032","lon":"34.76984689900007","address":"Adler St 5, Be'er Sheva, Israel","status":"open","capacity":"1.25 meter per person"}
{"_id":{"$oid":"5ea81e472b263c4810ebc081"},"name":"ר/8","lat":"31.27098784900005","lon":"34.80727280600007","address":"HaMada St 17, Be'er Sheva, Israel","status":"open","capacity":"1.25 meter per person"}
{"_id":{"$oid":"5ea81e482b263c4810ebc082"},"name":"ד/26","lat":"31.266029333000063","lon":"34.80086299900006","address":"Ringelblum St 2-6, Be'er Sheva, Israel","status":"open","capacity":"1.25 meter per person"}
{"_id":{"$oid":"5ea81e482b263c4810ebc083"},"name":"ג/48","lat":"31.25408293000004","lon":"34.81164565600005","address":"Ha-Nadiv St 11, Be'er Sheva, Israel","status":"open","capacity":"1.25 meter per person"}
{"_id":{"$oid":"5ea81e492b263c4810ebc084"},"name":"ד/57","lat":"31.27013664800006","lon":"34.78429040800006","address":"Ibn Ezra St 75, Be'er Sheva, Israel","status":"open","capacity":"1.25 meter per person"}
{"_id":{"$oid":"5ea81e492b263c4810ebc085"},"name":"ע/11","lat":"31.240211396000063","lon":"34.795037980000075","address":"Ha-Shvakim St 41, Be'er Sheva, Israel","status":"open","capacity":"1.25 meter per person"}
{"_id":{"$oid":"5ea81e4a2b263c4810ebc086"},"name":"ד/50","lat":"31.264656778000074","lon":"34.79612406100006","address":"Simtat Tsiklag 183, Beersheba, Israel","status":"open","capacity":"1.25 meter per person"}
{"_id":{"$oid":"5ea81e4b2b263c4810ebc087"},"name":"ג/50","lat":"31.246330439000076","lon":"34.808334993000074","address":"Pinhas Hahotsev St 18, Be'er Sheva, Israel","status":"open","capacity":"1.25 meter per person"}
{"_id":{"$oid":"5ea81e4b2b263c4810ebc088"},"name":"ע/10","lat":"31.23477883700008","lon":"34.78255038900005","address":"HaGdudim St 21, Be'er Sheva, Israel","status":"open","capacity":"1.25 meter per person"}
{"_id":{"$oid":"5ea81e4c2b263c4810ebc089"},"name":"ג/40","lat":"31.25242828300003","lon":"34.808149154000034","address":"Derech HaShalom 67, Beersheba, Israel","status":"open","capacity":"1.25 meter per person"}
